{
    "ciudades": [
        {
            "nombre": "Irun",
            "latitud": 43.3390,
            "longitud": -1.7896,
            "humedad": "80%",
            "grados": "14º",
            "lluvia":84
        },
        {
            "nombre": "Donostia/San Sebastian",
            "latitud": 43.3183,
            "longitud": -1.9812,
            "humedad": "80%",
            "grados": "14º",
            "lluvia":20



        },
        {
            "nombre": "Errenteria",
            "latitud": 43.3119,
            "longitud": -1.8985,
            "humedad": "80%",
            "grados": "14º",
            "lluvia":50



        },
        {
            "nombre": "Oiartzun",
            "latitud": 43.2998,
            "longitud": -1.8608,
            "humedad": "80%",
            "grados": "14º",
            "lluvia":60



        },
        {
            "nombre": "Hernani",
            "latitud": 43.2653,
            "longitud": -1.9761,
            "humedad": "80%",
            "grados": "14º",
            "lluvia":84



        }
    ]
}